[
  {
    "id": 1,
    "name": "Phở Lệ",
    "rating": 4.5,
    "averagePrice": 55000,
    "cuisines": ["Vietnamese", "Noodle"],
    "tags": ["Phở bò", "Phở gõ", "Phở tái"],
    "openHours": "06:00 - 22:00",
    "specialFlags": [],
    "location": { "latitude": 10.7584, "longitude": 106.6690 },
    "image_url": "/static/images/phole.png",
    "distance_text": "1.2 km",
    "price_text": "30k - 60k"
  },
  {
    "id": 2,
    "name": "Bánh Mì Huynh Hoa",
    "rating": 4.7,
    "averagePrice": 30000,
    "cuisines": ["Vietnamese", "Sandwich"],
    "tags": ["Bánh mì", "Bánh mì xíu mại", "Bánh mì nướng"],
    "openHours": "15:00 - 23:30",
    "specialFlags": ["Popular"],
    "location": { "latitude": 10.7699, "longitude": 106.6922 },
    "image_url": "/static/images/banhmi.png",
    "distance_text": "2.5 km",
    "price_text": "20k - 35k"
  },
  {
    "id": 3,
    "name": "Cơm Tấm Mộc",
    "rating": 4.2,
    "averagePrice": 45000,
    "cuisines": ["Vietnamese", "Rice"],
    "tags": ["Cơm tấm sườn", "Cơm tấm bì", "Cơm tấm chả"],
    "openHours": "06:00 - 21:00",
    "specialFlags": [],
    "location": { "latitude": 10.7791, "longitude": 106.6978 },
    "image_url": "/static/images/comtam.png",
    "distance_text": "1.8 km",
    "price_text": "35k - 55k"
  },
  {
    "id": 4,
    "name": "Bún Bò Huế Đông Ba",
    "rating": 4.4,
    "averagePrice": 50000,
    "cuisines": ["Vietnamese", "Noodle"],
    "tags": ["Bún bò Huế", "Bún bò", "Bún thịt nướng"],
    "openHours": "06:30 - 20:00",
    "specialFlags": [],
    "location": { "latitude": 10.7845, "longitude": 106.6993 },
    "image_url": "/static/images/bunbohue.png",
    "distance_text": "3.2 km",
    "price_text": "40k - 65k"
  },
  {
    "id": 5,
    "name": "Quán Gỏi Cuốn Sài Gòn",
    "rating": 4.0,
    "averagePrice": 20000,
    "cuisines": ["Vietnamese", "Appetizer"],
    "tags": ["Gỏi cuốn", "Nước chấm", "Chả giò"],
    "openHours": "10:00 - 22:00",
    "specialFlags": ["Vegan options"],
    "location": { "latitude": 10.7651, "longitude": 106.6872 },
    "image_url": "/static/images/goicuon.png",
    "distance_text": "1.5 km",
    "price_text": "25k - 45k"
  },
  {
    "id": 6,
    "name": "Bánh Xèo 46A",
    "rating": 4.3,
    "averagePrice": 35000,
    "cuisines": ["Vietnamese", "Pancake"],
    "tags": ["Bánh xèo", "Bánh khọt", "Bánh căn"],
    "openHours": "11:00 - 21:00",
    "specialFlags": [],
    "location": { "latitude": 10.7709, "longitude": 106.6853 },
    "image_url": "/static/images/banhxeo.png",
    "distance_text": "2.8 km",
    "price_text": "30k - 50k"
  },
  {
    "id": 7,
    "name": "Hủ Tiếu Nam Vang - 2K",
    "rating": 4.1,
    "averagePrice": 40000,
    "cuisines": ["Vietnamese", "Noodle"],
    "tags": ["Hủ tiếu", "Hủ tiếu nước", "Hủ tiếu Nam Vang"],
    "openHours": "06:00 - 14:00",
    "specialFlags": [],
    "location": { "latitude": 10.7592, "longitude": 106.6870 },
    "image_url": "/static/images/hutieu.png",
    "distance_text": "2 km",
    "price_text": "35k - 55k"
  },
  {
    "id": 8,
    "name": "Chè Thái Hồng",
    "rating": 3.9,
    "averagePrice": 18000,
    "cuisines": ["Dessert"],
    "tags": ["Chè thập cẩm", "Chè khúc bạch", "Chè đậu xanh"],
    "openHours": "09:00 - 22:30",
    "specialFlags": [],
    "location": { "latitude": 10.7628, "longitude": 106.6943 },
    "image_url": "/static/images/che.png",
    "distance_text": "1.5 km",
    "price_text": "15k - 30k"
  }
]